[
    {
        "id": 1,
        "name": "Genghis Khan",
        "category": "Warfare & Strategy",
        "era": "Medieval",
        "ancient_origin": "Mongol Empire",
        "modern_country": "Mongolia",
        "lat": 47.8864,
        "lng": 106.9057,
        "short_description": "Founder of the Mongol Empire"
    },
    {
        "id": 2,
        "name": "Julius Caesar",
        "category": "Politics & Leadership",
        "era": "Ancient",
        "ancient_origin": "Roman Republic",
        "modern_country": "Italy",
        "lat": 41.9028,
        "lng": 12.4964,
        "short_description": "Roman general and statesman"
    },
    {
        "id": 3,
        "name": "Confucius",
        "category": "Philosophy & Education",
        "era": "Ancient",
        "ancient_origin": "Zhou Dynasty",
        "modern_country": "China",
        "lat": 35.5951,
        "lng": 116.9675,
        "short_description": "Chinese philosopher and teacher"
    },
    {
        "id": 4,
        "name": "Alexander the Great",
        "category": "Warfare & Strategy",
        "era": "Ancient",
        "ancient_origin": "Macedonia",
        "modern_country": "Greece",
        "lat": 40.5138,
        "lng": 22.9382,
        "short_description": "King of Macedonia and conqueror"
    },
    {
        "id": 5,
        "name": "Cleopatra VII",
        "category": "Politics & Leadership",
        "era": "Ancient",
        "ancient_origin": "Ptolemaic Egypt",
        "modern_country": "Egypt",
        "lat": 31.2001,
        "lng": 29.9187,
        "short_description": "Last Pharaoh of Egypt"
    },
    {
        "id": 6,
        "name": "Muhammad",
        "category": "Religion & Spirituality",
        "era": "Medieval",
        "ancient_origin": "Arabian Peninsula",
        "modern_country": "Saudi Arabia",
        "lat": 21.3891,
        "lng": 39.8579,
        "short_description": "Prophet and founder of Islam"
    },
    {
        "id": 7,
        "name": "Leonardo da Vinci",
        "category": "Arts & Literature",
        "era": "Early Modern",
        "ancient_origin": "Renaissance Italy",
        "modern_country": "Italy",
        "lat": 43.7696,
        "lng": 11.2558,
        "short_description": "Polymath, artist, and inventor"
    },
    {
        "id": 8,
        "name": "Joan of Arc",
        "category": "Warfare & Strategy",
        "era": "Medieval",
        "ancient_origin": "Kingdom of France",
        "modern_country": "France",
        "lat": 48.7833,
        "lng": 2.0333,
        "short_description": "French military leader and saint"
    },
    {
        "id": 9,
        "name": "Aristotle",
        "category": "Philosophy & Education",
        "era": "Ancient",
        "ancient_origin": "Ancient Greece",
        "modern_country": "Greece",
        "lat": 40.5922,
        "lng": 22.9595,
        "short_description": "Greek philosopher and scientist"
    },
    {
        "id": 10,
        "name": "Sun Tzu",
        "category": "Warfare & Strategy",
        "era": "Ancient",
        "ancient_origin": "Eastern Zhou",
        "modern_country": "China",
        "lat": 34.3416,
        "lng": 108.9398,
        "short_description": "Military strategist and philosopher"
    },
    {
        "id": 11,
        "name": "Saladin",
        "category": "Warfare & Strategy",
        "era": "Medieval",
        "ancient_origin": "Ayyubid Sultanate",
        "modern_country": "Iraq",
        "lat": 33.3128,
        "lng": 44.3615,
        "short_description": "Sultan of Egypt and Syria"
    },
    {
        "id": 12,
        "name": "Socrates",
        "category": "Philosophy & Education",
        "era": "Ancient",
        "ancient_origin": "Ancient Athens",
        "modern_country": "Greece",
        "lat": 37.9838,
        "lng": 23.7275,
        "short_description": "Classical Greek philosopher"
    },
    {
        "id": 13,
        "name": "Ashoka the Great",
        "category": "Politics & Leadership",
        "era": "Ancient",
        "ancient_origin": "Maurya Empire",
        "modern_country": "India",
        "lat": 25.5941,
        "lng": 85.1376,
        "short_description": "Emperor who spread Buddhism"
    },
    {
        "id": 14,
        "name": "Hammurabi",
        "category": "Politics & Leadership",
        "era": "Ancient",
        "ancient_origin": "Babylonian Empire",
        "modern_country": "Iraq",
        "lat": 32.5364,
        "lng": 44.4211,
        "short_description": "Babylonian king and lawgiver"
    },
    {
        "id": 15,
        "name": "Michelangelo",
        "category": "Arts & Literature",
        "era": "Early Modern",
        "ancient_origin": "Renaissance Italy",
        "modern_country": "Italy",
        "lat": 43.7696,
        "lng": 11.2558,
        "short_description": "Renaissance sculptor and painter"
    },
    {
        "id": 16,
        "name": "Charlemagne",
        "category": "Politics & Leadership",
        "era": "Medieval",
        "ancient_origin": "Carolingian Empire",
        "modern_country": "France",
        "lat": 50.7753,
        "lng": 6.0839,
        "short_description": "King of Franks, Holy Roman Emperor"
    },
    {
        "id": 17,
        "name": "Plato",
        "category": "Philosophy & Education",
        "era": "Ancient",
        "ancient_origin": "Ancient Athens",
        "modern_country": "Greece",
        "lat": 37.9838,
        "lng": 23.7275,
        "short_description": "Greek philosopher, student of Socrates"
    },
    {
        "id": 18,
        "name": "Archimedes",
        "category": "Science & Mathematics",
        "era": "Ancient",
        "ancient_origin": "Ancient Syracuse",
        "modern_country": "Italy",
        "lat": 37.0755,
        "lng": 15.2866,
        "short_description": "Greek mathematician and inventor"
    },
    {
        "id": 19,
        "name": "Hannibal Barca",
        "category": "Warfare & Strategy",
        "era": "Ancient",
        "ancient_origin": "Carthage",
        "modern_country": "Tunisia",
        "lat": 36.8065,
        "lng": 10.1815,
        "short_description": "Carthaginian general"
    },
    {
        "id": 20,
        "name": "Marco Polo",
        "category": "Exploration & Geography",
        "era": "Medieval",
        "ancient_origin": "Venetian Republic",
        "modern_country": "Italy",
        "lat": 45.4408,
        "lng": 12.3155,
        "short_description": "Venetian explorer of Asia"
    },
    {
        "id": 21,
        "name": "Suleiman the Magnificent",
        "category": "Politics & Leadership",
        "era": "Early Modern",
        "ancient_origin": "Ottoman Empire",
        "modern_country": "Turkey",
        "lat": 41.0082,
        "lng": 28.9784,
        "short_description": "Greatest Ottoman Sultan"
    },
    {
        "id": 22,
        "name": "Hatshepsut",
        "category": "Politics & Leadership",
        "era": "Ancient",
        "ancient_origin": "Ancient Egypt",
        "modern_country": "Egypt",
        "lat": 25.7388,
        "lng": 32.6014,
        "short_description": "Female Pharaoh of Egypt"
    },
    {
        "id": 23,
        "name": "Pythagoras",
        "category": "Science & Mathematics",
        "era": "Ancient",
        "ancient_origin": "Ancient Greece",
        "modern_country": "Greece",
        "lat": 37.6871,
        "lng": 26.9721,
        "short_description": "Greek mathematician and philosopher"
    },
    {
        "id": 24,
        "name": "Omar Khayyam",
        "category": "Science & Mathematics",
        "era": "Medieval",
        "ancient_origin": "Seljuk Empire",
        "modern_country": "Iran",
        "lat": 36.2974,
        "lng": 59.6059,
        "short_description": "Persian mathematician and poet"
    },
    {
        "id": 25,
        "name": "William Shakespeare",
        "category": "Arts & Literature",
        "era": "Early Modern",
        "ancient_origin": "Elizabethan England",
        "modern_country": "United Kingdom",
        "lat": 52.1906,
        "lng": -1.7081,
        "short_description": "English playwright and poet"
    },
    {
        "id": 26,
        "name": "Cyrus the Great",
        "category": "Politics & Leadership",
        "era": "Ancient",
        "ancient_origin": "Achaemenid Empire",
        "modern_country": "Iran",
        "lat": 30.1975,
        "lng": 53.0453,
        "short_description": "Founder of Persian Empire"
    },
    {
        "id": 27,
        "name": "Buddha (Siddhartha Gautama)",
        "category": "Religion & Spirituality",
        "era": "Ancient",
        "ancient_origin": "Ancient India",
        "modern_country": "Nepal",
        "lat": 27.4728,
        "lng": 84.8926,
        "short_description": "Founder of Buddhism"
    },
    {
        "id": 28,
        "name": "Akbar the Great",
        "category": "Politics & Leadership",
        "era": "Early Modern",
        "ancient_origin": "Mughal Empire",
        "modern_country": "India",
        "lat": 27.1767,
        "lng": 78.0081,
        "short_description": "Greatest Mughal Emperor"
    },
    {
        "id": 29,
        "name": "Hippocrates",
        "category": "Medicine",
        "era": "Ancient",
        "ancient_origin": "Ancient Greece",
        "modern_country": "Greece",
        "lat": 36.8969,
        "lng": 27.2903,
        "short_description": "Father of Western medicine"
    },
    {
        "id": 30,
        "name": "Mansa Musa",
        "category": "Politics & Leadership",
        "era": "Medieval",
        "ancient_origin": "Mali Empire",
        "modern_country": "Mali",
        "lat": 17.5707,
        "lng": -3.9962,
        "short_description": "Wealthiest ruler in history"
    },
    {
        "id": 31,
        "name": "Ramesses II",
        "category": "Politics & Leadership",
        "era": "Ancient",
        "ancient_origin": "Ancient Egypt",
        "modern_country": "Egypt",
        "lat": 25.7188,
        "lng": 32.6573,
        "short_description": "Greatest Egyptian Pharaoh"
    },
    {
        "id": 32,
        "name": "Galileo Galilei",
        "category": "Science & Mathematics",
        "era": "Early Modern",
        "ancient_origin": "Grand Duchy of Tuscany",
        "modern_country": "Italy",
        "lat": 43.7228,
        "lng": 10.4017,
        "short_description": "Father of modern science"
    },
    {
        "id": 33,
        "name": "Attila the Hun",
        "category": "Warfare & Strategy",
        "era": "Ancient",
        "ancient_origin": "Hunnic Empire",
        "modern_country": "Hungary",
        "lat": 47.4979,
        "lng": 19.0402,
        "short_description": "Ruler of the Huns"
    },
    {
        "id": 34,
        "name": "Ibn Sina (Avicenna)",
        "category": "Medicine",
        "era": "Medieval",
        "ancient_origin": "Persian Empires",
        "modern_country": "Uzbekistan",
        "lat": 40.2625,
        "lng": 69.2174,
        "short_description": "Persian polymath and physician"
    },
    {
        "id": 35,
        "name": "Dante Alighieri",
        "category": "Arts & Literature",
        "era": "Medieval",
        "ancient_origin": "Republic of Florence",
        "modern_country": "Italy",
        "lat": 43.7696,
        "lng": 11.2558,
        "short_description": "Italian poet, author of Divine Comedy"
    },
    {
        "id": 36,
        "name": "Montezuma II",
        "category": "Politics & Leadership",
        "era": "Early Modern",
        "ancient_origin": "Aztec Empire",
        "modern_country": "Mexico",
        "lat": 19.4326,
        "lng": -99.1332,
        "short_description": "Aztec Emperor"
    },
    {
        "id": 37,
        "name": "Euclid",
        "category": "Science & Mathematics",
        "era": "Ancient",
        "ancient_origin": "Ptolemaic Egypt",
        "modern_country": "Egypt",
        "lat": 31.2001,
        "lng": 29.9187,
        "short_description": "Father of geometry"
    },
    {
        "id": 38,
        "name": "Spartacus",
        "category": "Warfare & Strategy",
        "era": "Ancient",
        "ancient_origin": "Thrace",
        "modern_country": "Bulgaria",
        "lat": 42.1354,
        "lng": 24.7453,
        "short_description": "Gladiator who led slave revolt"
    },
    {
        "id": 39,
        "name": "Nefertiti",
        "category": "Politics & Leadership",
        "era": "Ancient",
        "ancient_origin": "Ancient Egypt",
        "modern_country": "Egypt",
        "lat": 27.6648,
        "lng": 30.8025,
        "short_description": "Egyptian Queen"
    },
    {
        "id": 40,
        "name": "Zheng He",
        "category": "Exploration & Geography",
        "era": "Medieval",
        "ancient_origin": "Ming Dynasty",
        "modern_country": "China",
        "lat": 24.4798,
        "lng": 118.0894,
        "short_description": "Chinese admiral and explorer"
    },
    {
        "id": 41,
        "name": "Lao Tzu",
        "category": "Philosophy & Education",
        "era": "Ancient",
        "ancient_origin": "Zhou Dynasty",
        "modern_country": "China",
        "lat": 34.1478,
        "lng": 113.5305,
        "short_description": "Founder of Taoism"
    },
    {
        "id": 42,
        "name": "Homer",
        "category": "Arts & Literature",
        "era": "Ancient",
        "ancient_origin": "Ancient Greece",
        "modern_country": "Greece",
        "lat": 38.3719,
        "lng": 26.1339,
        "short_description": "Epic poet, author of Iliad and Odyssey"
    },
    {
        "id": 43,
        "name": "Pachacuti",
        "category": "Politics & Leadership",
        "era": "Medieval",
        "ancient_origin": "Inca Empire",
        "modern_country": "Peru",
        "lat": -13.1631,
        "lng": -72.5450,
        "short_description": "Founder of Inca Empire"
    },
    {
        "id": 44,
        "name": "Hannibal",
        "category": "Warfare & Strategy",
        "era": "Ancient",
        "ancient_origin": "Carthage",
        "modern_country": "Tunisia",
        "lat": 36.8065,
        "lng": 10.1815,
        "short_description": "Carthaginian military commander"
    },
    {
        "id": 45,
        "name": "Al-Khwarizmi",
        "category": "Science & Mathematics",
        "era": "Medieval",
        "ancient_origin": "Abbasid Caliphate",
        "modern_country": "Uzbekistan",
        "lat": 41.2995,
        "lng": 69.2401,
        "short_description": "Father of algebra"
    },
    {
        "id": 46,
        "name": "Virgil",
        "category": "Arts & Literature",
        "era": "Ancient",
        "ancient_origin": "Roman Empire",
        "modern_country": "Italy",
        "lat": 45.1564,
        "lng": 10.7914,
        "short_description": "Roman poet, author of Aeneid"
    },
    {
        "id": 47,
        "name": "Saladin",
        "category": "Warfare & Strategy",
        "era": "Medieval",
        "ancient_origin": "Ayyubid Dynasty",
        "modern_country": "Iraq",
        "lat": 33.3128,
        "lng": 44.3615,
        "short_description": "Muslim military leader"
    },
    {
        "id": 48,
        "name": "Sitting Bull",
        "category": "Warfare & Strategy",
        "era": "Early Modern",
        "ancient_origin": "Lakota Nation",
        "modern_country": "United States",
        "lat": 45.9633,
        "lng": -100.9023,
        "short_description": "Lakota leader and warrior"
    },
    {
        "id": 49,
        "name": "Maimonides",
        "category": "Philosophy & Education",
        "era": "Medieval",
        "ancient_origin": "Almohad Caliphate",
        "modern_country": "Spain",
        "lat": 37.7749,
        "lng": -4.7794,
        "short_description": "Jewish philosopher and scholar"
    },
    {
        "id": 50,
        "name": "Cicero",
        "category": "Philosophy & Education",
        "era": "Ancient",
        "ancient_origin": "Roman Republic",
        "modern_country": "Italy",
        "lat": 41.3083,
        "lng": 13.4125,
        "short_description": "Roman orator and philosopher"
    },
    {
        "id": 51,
        "name": "Queen Elizabeth I",
        "category": "Politics & Leadership",
        "era": "Early Modern",
        "ancient_origin": "Tudor England",
        "modern_country": "United Kingdom",
        "lat": 51.5074,
        "lng": -0.1278,
        "short_description": "Queen of England during Golden Age"
    },
    {
        "id": 52,
        "name": "Nebuchadnezzar II",
        "category": "Politics & Leadership",
        "era": "Ancient",
        "ancient_origin": "Neo-Babylonian Empire",
        "modern_country": "Iraq",
        "lat": 32.5364,
        "lng": 44.4211,
        "short_description": "Builder of Hanging Gardens"
    },
    {
        "id": 53,
        "name": "Rumi",
        "category": "Arts & Literature",
        "era": "Medieval",
        "ancient_origin": "Seljuk Sultanate",
        "modern_country": "Afghanistan",
        "lat": 36.7069,
        "lng": 67.1108,
        "short_description": "Persian Sufi poet and mystic"
    },
    {
        "id": 54,
        "name": "Imhotep",
        "category": "Medicine",
        "era": "Ancient",
        "ancient_origin": "Ancient Egypt",
        "modern_country": "Egypt",
        "lat": 29.8747,
        "lng": 31.3225,
        "short_description": "Egyptian polymath and architect"
    },
    {
        "id": 55,
        "name": "Shaka Zulu",
        "category": "Warfare & Strategy",
        "era": "Early Modern",
        "ancient_origin": "Zulu Kingdom",
        "modern_country": "South Africa",
        "lat": -28.7415,
        "lng": 32.1603,
        "short_description": "Zulu warrior king"
    },
    {
        "id": 56,
        "name": "Sappho",
        "category": "Arts & Literature",
        "era": "Ancient",
        "ancient_origin": "Ancient Greece",
        "modern_country": "Greece",
        "lat": 39.2000,
        "lng": 26.2500,
        "short_description": "Greek lyric poet"
    },
    {
        "id": 57,
        "name": "Timur (Tamerlane)",
        "category": "Warfare & Strategy",
        "era": "Medieval",
        "ancient_origin": "Timurid Empire",
        "modern_country": "Uzbekistan",
        "lat": 39.6270,
        "lng": 66.9750,
        "short_description": "Turco-Mongol conqueror"
    },
    {
        "id": 58,
        "name": "Hypatia",
        "category": "Science & Mathematics",
        "era": "Ancient",
        "ancient_origin": "Roman Egypt",
        "modern_country": "Egypt",
        "lat": 31.2001,
        "lng": 29.9187,
        "short_description": "Greek mathematician and philosopher"
    },
    {
        "id": 59,
        "name": "Alfred the Great",
        "category": "Politics & Leadership",
        "era": "Medieval",
        "ancient_origin": "Kingdom of Wessex",
        "modern_country": "United Kingdom",
        "lat": 51.0632,
        "lng": -1.3080,
        "short_description": "King who united Anglo-Saxon England"
    },
    {
        "id": 60,
        "name": "Chandragupta Maurya",
        "category": "Politics & Leadership",
        "era": "Ancient",
        "ancient_origin": "Maurya Empire",
        "modern_country": "India",
        "lat": 25.5941,
        "lng": 85.1376,
        "short_description": "Founder of Mauryan Empire"
    },
    {
        "id": 61,
        "name": "Murasaki Shikibu",
        "category": "Arts & Literature",
        "era": "Medieval",
        "ancient_origin": "Heian Japan",
        "modern_country": "Japan",
        "lat": 35.0116,
        "lng": 135.7681,
        "short_description": "Author of Tale of Genji"
    },
    {
        "id": 62,
        "name": "Boudica",
        "category": "Warfare & Strategy",
        "era": "Ancient",
        "ancient_origin": "Celtic Britain",
        "modern_country": "United Kingdom",
        "lat": 52.4862,
        "lng": -1.8904,
        "short_description": "Celtic queen who fought Rome"
    },
    {
        "id": 63,
        "name": "Xerxes I",
        "category": "Politics & Leadership",
        "era": "Ancient",
        "ancient_origin": "Achaemenid Empire",
        "modern_country": "Iran",
        "lat": 29.9333,
        "lng": 52.8916,
        "short_description": "Persian emperor"
    },
    {
        "id": 64,
        "name": "Basho",
        "category": "Arts & Literature",
        "era": "Early Modern",
        "ancient_origin": "Tokugawa Japan",
        "modern_country": "Japan",
        "lat": 36.2048,
        "lng": 138.2529,
        "short_description": "Master of haiku poetry"
    },
    {
        "id": 65,
        "name": "Sundiata Keita",
        "category": "Politics & Leadership",
        "era": "Medieval",
        "ancient_origin": "Mali Empire",
        "modern_country": "Mali",
        "lat": 12.6392,
        "lng": -8.0029,
        "short_description": "Founder of Mali Empire"
    },
    {
        "id": 66,
        "name": "Herodotus",
        "category": "Philosophy & Education",
        "era": "Ancient",
        "ancient_origin": "Ancient Greece",
        "modern_country": "Turkey",
        "lat": 37.0379,
        "lng": 27.4241,
        "short_description": "Father of History"
    },
    {
        "id": 67,
        "name": "Theodora",
        "category": "Politics & Leadership",
        "era": "Medieval",
        "ancient_origin": "Byzantine Empire",
        "modern_country": "Turkey",
        "lat": 41.0082,
        "lng": 28.9784,
        "short_description": "Byzantine empress"
    },
    {
        "id": 68,
        "name": "Ibn Battuta",
        "category": "Exploration & Geography",
        "era": "Medieval",
        "ancient_origin": "Marinid Dynasty",
        "modern_country": "Morocco",
        "lat": 35.7784,
        "lng": -5.8024,
        "short_description": "Greatest medieval traveler"
    },
    {
        "id": 69,
        "name": "Shivaji",
        "category": "Warfare & Strategy",
        "era": "Early Modern",
        "ancient_origin": "Maratha Empire",
        "modern_country": "India",
        "lat": 18.9218,
        "lng": 72.8347,
        "short_description": "Founder of Maratha Empire"
    },
    {
        "id": 70,
        "name": "Caravaggio",
        "category": "Arts & Literature",
        "era": "Early Modern",
        "ancient_origin": "Papal States",
        "modern_country": "Italy",
        "lat": 41.9028,
        "lng": 12.4964,
        "short_description": "Baroque painter"
    },
    {
        "id": 71,
        "name": "Justinian I",
        "category": "Politics & Leadership",
        "era": "Medieval",
        "ancient_origin": "Byzantine Empire",
        "modern_country": "Turkey",
        "lat": 41.0082,
        "lng": 28.9784,
        "short_description": "Byzantine emperor and lawgiver"
    },
    {
        "id": 72,
        "name": "Darius I",
        "category": "Politics & Leadership",
        "era": "Ancient",
        "ancient_origin": "Achaemenid Empire",
        "modern_country": "Iran",
        "lat": 29.9333,
        "lng": 52.8916,
        "short_description": "Persian emperor who expanded empire"
    },
    {
        "id": 73,
        "name": "Avicenna",
        "category": "Medicine",
        "era": "Medieval",
        "ancient_origin": "Samanid Empire",
        "modern_country": "Uzbekistan",
        "lat": 39.6542,
        "lng": 66.9597,
        "short_description": "Persian physician"
    },
    {
        "id": 74,
        "name": "Averroes",
        "category": "Philosophy & Education",
        "era": "Medieval",
        "ancient_origin": "Almohad Caliphate",
        "modern_country": "Spain",
        "lat": 37.3891,
        "lng": -5.9845,
        "short_description": "Islamic philosopher"
    },
    {
        "id": 75,
        "name": "Gilgamesh",
        "category": "Politics & Leadership",
        "era": "Ancient",
        "ancient_origin": "Sumerian City-States",
        "modern_country": "Iraq",
        "lat": 31.3177,
        "lng": 45.7503,
        "short_description": "Legendary Sumerian king"
    },
    {
        "id": 76,
        "name": "Zenobia",
        "category": "Politics & Leadership",
        "era": "Ancient",
        "ancient_origin": "Palmyrene Empire",
        "modern_country": "Syria",
        "lat": 34.5612,
        "lng": 38.2691,
        "short_description": "Queen of Palmyra"
    },
    {
        "id": 77,
        "name": "Hannibal",
        "category": "Warfare & Strategy",
        "era": "Ancient",
        "ancient_origin": "Carthage",
        "modern_country": "Tunisia",
        "lat": 36.8065,
        "lng": 10.1815,
        "short_description": "Carthaginian general"
    },
    {
        "id": 78,
        "name": "Rene Descartes",
        "category": "Philosophy & Education",
        "era": "Early Modern",
        "ancient_origin": "Kingdom of France",
        "modern_country": "France",
        "lat": 46.6034,
        "lng": 1.8883,
        "short_description": "Father of modern philosophy"
    },
    {
        "id": 79,
        "name": "Queen of Sheba",
        "category": "Politics & Leadership",
        "era": "Ancient",
        "ancient_origin": "Kingdom of Sheba",
        "modern_country": "Yemen",
        "lat": 15.5527,
        "lng": 48.5164,
        "short_description": "Legendary queen"
    },
    {
        "id": 80,
        "name": "Khalid ibn al-Walid",
        "category": "Warfare & Strategy",
        "era": "Medieval",
        "ancient_origin": "Rashidun Caliphate",
        "modern_country": "Saudi Arabia",
        "lat": 21.4225,
        "lng": 39.8262,
        "short_description": "Islamic military commander"
    },
    {
        "id": 81,
        "name": "Bede",
        "category": "Philosophy & Education",
        "era": "Medieval",
        "ancient_origin": "Kingdom of Northumbria",
        "modern_country": "United Kingdom",
        "lat": 54.9783,
        "lng": -1.6178,
        "short_description": "The Venerable Bede, historian"
    },
    {
        "id": 82,
        "name": "Kublai Khan",
        "category": "Politics & Leadership",
        "era": "Medieval",
        "ancient_origin": "Yuan Dynasty",
        "modern_country": "Mongolia",
        "lat": 47.8864,
        "lng": 106.9057,
        "short_description": "Mongol emperor of China"
    },
    {
        "id": 83,
        "name": "Solon",
        "category": "Politics & Leadership",
        "era": "Ancient",
        "ancient_origin": "Ancient Athens",
        "modern_country": "Greece",
        "lat": 37.9838,
        "lng": 23.7275,
        "short_description": "Athenian lawgiver"
    },
    {
        "id": 84,
        "name": "Maimonides",
        "category": "Medicine",
        "era": "Medieval",
        "ancient_origin": "Almohad Caliphate",
        "modern_country": "Egypt",
        "lat": 30.0444,
        "lng": 31.2357,
        "short_description": "Jewish philosopher and physician"
    },
    {
        "id": 85,
        "name": "Sejong the Great",
        "category": "Politics & Leadership",
        "era": "Medieval",
        "ancient_origin": "Joseon Dynasty",
        "modern_country": "South Korea",
        "lat": 37.5665,
        "lng": 126.9780,
        "short_description": "Korean king who created Hangul"
    },
    {
        "id": 86,
        "name": "Thucydides",
        "category": "Philosophy & Education",
        "era": "Ancient",
        "ancient_origin": "Ancient Athens",
        "modern_country": "Greece",
        "lat": 37.9838,
        "lng": 23.7275,
        "short_description": "Greek historian"
    },
    {
        "id": 87,
        "name": "Atahualpa",
        "category": "Politics & Leadership",
        "era": "Early Modern",
        "ancient_origin": "Inca Empire",
        "modern_country": "Peru",
        "lat": -13.5319,
        "lng": -71.9675,
        "short_description": "Last Inca emperor"
    },
    {
        "id": 88,
        "name": "Zhuge Liang",
        "category": "Warfare & Strategy",
        "era": "Ancient",
        "ancient_origin": "Three Kingdoms",
        "modern_country": "China",
        "lat": 34.3416,
        "lng": 108.9398,
        "short_description": "Chinese military strategist"
    },
    {
        "id": 89,
        "name": "Thomas Aquinas",
        "category": "Philosophy & Education",
        "era": "Medieval",
        "ancient_origin": "Kingdom of Sicily",
        "modern_country": "Italy",
        "lat": 41.4618,
        "lng": 12.9039,
        "short_description": "Catholic philosopher and theologian"
    },
    {
        "id": 90,
        "name": "Richard the Lionheart",
        "category": "Warfare & Strategy",
        "era": "Medieval",
        "ancient_origin": "Angevin Empire",
        "modern_country": "United Kingdom",
        "lat": 51.5074,
        "lng": -0.1278,
        "short_description": "Crusader king of England"
    },
    {
        "id": 91,
        "name": "Galen",
        "category": "Medicine",
        "era": "Ancient",
        "ancient_origin": "Roman Empire",
        "modern_country": "Turkey",
        "lat": 38.4189,
        "lng": 27.1287,
        "short_description": "Greek physician"
    },
    {
        "id": 92,
        "name": "Tupac Amaru",
        "category": "Politics & Leadership",
        "era": "Early Modern",
        "ancient_origin": "Inca Resistance",
        "modern_country": "Peru",
        "lat": -13.5319,
        "lng": -71.9675,
        "short_description": "Last Inca ruler"
    },
    {
        "id": 93,
        "name": "Saint Augustine",
        "category": "Religion & Spirituality",
        "era": "Ancient",
        "ancient_origin": "Roman North Africa",
        "modern_country": "Algeria",
        "lat": 36.7538,
        "lng": 3.0588,
        "short_description": "Christian theologian"
    },
    {
        "id": 94,
        "name": "Yi Sun-sin",
        "category": "Warfare & Strategy",
        "era": "Early Modern",
        "ancient_origin": "Joseon Dynasty",
        "modern_country": "South Korea",
        "lat": 35.1796,
        "lng": 129.0756,
        "short_description": "Korean naval commander"
    },
    {
        "id": 95,
        "name": "Olaudah Equiano",
        "category": "Arts & Literature",
        "era": "Early Modern",
        "ancient_origin": "Kingdom of Benin",
        "modern_country": "Nigeria",
        "lat": 6.3350,
        "lng": 5.6037,
        "short_description": "Abolitionist writer"
    },
    {
        "id": 96,
        "name": "Ptolemy",
        "category": "Science & Mathematics",
        "era": "Ancient",
        "ancient_origin": "Roman Egypt",
        "modern_country": "Egypt",
        "lat": 31.2001,
        "lng": 29.9187,
        "short_description": "Astronomer and geographer"
    },
    {
        "id": 97,
        "name": "Harun al-Rashid",
        "category": "Politics & Leadership",
        "era": "Medieval",
        "ancient_origin": "Abbasid Caliphate",
        "modern_country": "Iraq",
        "lat": 33.3128,
        "lng": 44.3615,
        "short_description": "Caliph of Baghdad's Golden Age"
    },
    {
        "id": 98,
        "name": "Pericles",
        "category": "Politics & Leadership",
        "era": "Ancient",
        "ancient_origin": "Ancient Athens",
        "modern_country": "Greece",
        "lat": 37.9838,
        "lng": 23.7275,
        "short_description": "Athenian statesman"
    },
    {
        "id": 99,
        "name": "Oda Nobunaga",
        "category": "Warfare & Strategy",
        "era": "Early Modern",
        "ancient_origin": "Sengoku Japan",
        "modern_country": "Japan",
        "lat": 35.1815,
        "lng": 136.9066,
        "short_description": "Japanese warlord and unifier"
    },
    {
        "id": 100,
        "name": "Livia",
        "category": "Politics & Leadership",
        "era": "Ancient",
        "ancient_origin": "Roman Empire",
        "modern_country": "Italy",
        "lat": 41.9028,
        "lng": 12.4964,
        "short_description": "Roman empress and advisor"
    }
]